[
  {
    "owner": "1",
    "name": "Boston Commons Retreat",
    "type": "Apartment",
    "description": "This is a beautiful apartment located near the commons. It is a 2 bedroom apartment with a full kitchen and bathroom. It is available for weekly or monthly rentals.",
    "location": {
      "street": "120 Tremont Street",
      "city": "Boston",
      "state": "MA",
      "zipcode": "02108",
      "full_text": "120 Tremont Street Boston MA 02108"
    },
    "beds": 2,
    "baths": 1,
    "square_feet": 1500,
    "amenities": [
      "Wifi",
      "Full kitchen",
      "Washer & Dryer",
      "Free Parking",
      "Hot Tub",
      "24/7 Security",
      "Wheelchair Accessible",
      "Elevator Access",
      "Dishwasher",
      "Gym/Fitness Center",
      "Air Conditioning",
      "Balcony/Patio",
      "Smart TV",
      "Coffee Maker"
    ],
    "rates": {
      "weekly": 1100,
      "monthly": 4200
    },
    "images": ["a1.jpg", "a2.jpg", "a3.jpg"]
  },
  {
    "owner": "1",
    "name": "Cozy Downtown Loft",
    "type": "Apartment",
    "description": "A cozy downtown loft with great city views.",
    "location": {
      "street": "45 Main Street",
      "city": "New York",
      "state": "NY",
      "zipcode": "10001",
      "full_text": "45 Main Street New York NY 10001"
    },
    "beds": 1,
    "baths": 1,
    "square_feet": 1800,
    "amenities": [
      "Wifi",
      "Full kitchen",
      "Washer & Dryer",
      "Free Parking",
      "Hot Tub",
      "24/7 Security",
      "Wheelchair Accessible",
      "Elevator Access",
      "Dishwasher",
      "High-Speed Internet",
      "Air Conditioning",
      "Smart TV",
      "Outdoor Grill/BBQ"
    ],
    "rates": {
      "weekly": 1000,
      "monthly": 4000
    },
    "images": ["b1.jpg", "b2.jpg", "b3.jpg"]
  },
  {
    "owner": "2",
    "name": "Luxury Condo with a View",
    "type": "Condo",
    "description": "Experience luxury in this stunning condo with breathtaking views.",
    "location": {
      "street": "500 Lux Lane",
      "city": "Los Angeles",
      "state": "CA",
      "zipcode": "90001",
      "full_text": "500 Lux Lane Los Angeles CA 90001"
    },
    "beds": 3,
    "baths": 2,
    "square_feet": 2200,
    "amenities": [
      "Wifi",
      "Full kitchen",
      "Washer & Dryer",
      "Free Parking",
      "Hot Tub",
      "24/7 Security",
      "Wheelchair Accessible",
      "Elevator Access",
      "Dishwasher",
      "Swimming Pool",
      "Gym/Fitness Center",
      "Air Conditioning",
      "Smart TV",
      "Coffee Maker"
    ],
    "rates": {
      "nightly": 200,
      "weekly": 750,
      "monthly": 3300
    },
    "images": ["c1.jpg", "c2.jpg", "c3.jpg"]
  },
  {
    "owner": "2",
    "name": "Charming Cottage Getaway",
    "type": "Cottage Or Cabin",
    "description": "Escape to this charming cottage for a peaceful retreat.",
    "location": {
      "street": "123 Countryside Lane",
      "city": "Austin",
      "state": "TX",
      "zipcode": "78701",
      "full_text": "123 Countryside Lane Austin TX 78701"
    },
    "beds": 1,
    "baths": 1,
    "square_feet": 900,
    "amenities": [
      "Fireplace",
      "Outdoor Grill/BBQ",
      "Balcony/Patio",
      "Coffee Maker"
    ],
    "rates": {
      "weekly": 2000
    },
    "images": ["d1.jpg", "d2.jpg", "d3.jpg"]
  },
  {
    "owner": "3",
    "name": "Modern Downtown Studio",
    "type": "Studio",
    "description": "Stay in style in this modern downtown studio apartment.",
    "location": {
      "street": "75 Urban Avenue",
      "city": "Chicago",
      "state": "IL",
      "zipcode": "60601",
      "full_text": "75 Urban Avenue Chicago IL 60601"
    },
    "beds": 1,
    "baths": 1,
    "square_feet": 900,
    "amenities": [
      "High-Speed Internet",
      "Smart TV",
      "Air Conditioning",
      "Gym/Fitness Center",
      "Outdoor Grill/BBQ"
    ],
    "rates": {
      "weekly": 1100,
      "monthly": 4200
    },
    "images": ["e1.jpg", "e2.jpg", "e3.jpg"]
  },
  {
    "owner": "3",
    "name": "Seaside Retreat",
    "type": "House",
    "description": "Escape to this seaside house for a relaxing getaway.",
    "location": {
      "street": "456 Oceanfront Drive",
      "city": "Miami",
      "state": "FL",
      "zipcode": "33101",
      "full_text": "456 Oceanfront Drive Miami FL 33101"
    },
    "beds": 4,
    "baths": 3,
    "square_feet": 2800,
    "amenities": [
      "Beach Access",
      "Swimming Pool",
      "Balcony/Patio",
      "Smart TV",
      "Outdoor Grill/BBQ"
    ],
    "rates": {
      "nightly": 500,
      "weekly": 2500
    },
    "images": ["f1.jpg", "f2.jpg", "f3.jpg"]
  },
  {
    "owner": "4",
    "name": "Rustic Cabin in the Woods",
    "type": "Cottage Or Cabin",
    "description": "Experience nature in this cozy rustic cabin.",
    "location": {
      "street": "789 Forest Lane",
      "city": "Denver",
      "state": "CO",
      "zipcode": "80201",
      "full_text": "789 Forest Lane Denver CO 80201"
    },
    "beds": 2,
    "baths": 1,
    "square_feet": 1100,
    "amenities": [
      "Fireplace",
      "Outdoor Grill/BBQ",
      "Hiking Trails Access",
      "Pet-Friendly"
    ],
    "rates": {
      "nightly": 475,
      "weekly": 2000
    },
    "images": ["g1.jpg", "g2.jpg", "g3.jpg"]
  },
  {
    "owner": "5",
    "name": "Ski-In/Ski-Out Chalet",
    "type": "Chalet",
    "description": "Hit the slopes from this cozy ski-in/ski-out chalet.",
    "location": {
      "street": "321 Mountain Road",
      "city": "Aspen",
      "state": "CO",
      "zipcode": "81611",
      "full_text": "321 Mountain Road Aspen CO 81611"
    },
    "beds": 3,
    "baths": 2,
    "square_feet": 1800,
    "amenities": [
      "Ski Equipment Storage",
      "Fireplace",
      "Balcony/Patio",
      "Smart TV"
    ],
    "rates": {
      "nightly": 300,
      "weekly": 1100
    },
    "images": ["h1.jpg", "h2.jpg", "h3.jpg"]
  },
  {
    "owner": "6",
    "name": "Mountain View Retreat",
    "type": "House",
    "description": "Enjoy stunning mountain views from this spacious retreat.",
    "location": {
      "street": "600 Summit Drive",
      "city": "Boulder",
      "state": "CO",
      "zipcode": "80301",
      "full_text": "600 Summit Drive Boulder CO 80301"
    },
    "beds": 4,
    "baths": 3,
    "square_feet": 2400,
    "amenities": [
      "Mountain View",
      "Hiking Trails Access",
      "Air Conditioning",
      "Smart TV",
      "Outdoor Grill/BBQ"
    ],
    "rates": {
      "weekly": 1000,
      "monthly": 3800
    },
    "images": ["i1.jpg", "i2.jpg", "i3.jpg"]
  },
  {
    "owner": "7",
    "name": "Historic Downtown Loft",
    "type": "Apartment",
    "description": "Step back in time with a stay in this historic downtown loft.",
    "location": {
      "street": "123 History Lane",
      "city": "Philadelphia",
      "state": "PA",
      "zipcode": "19101",
      "full_text": "123 History Lane Philadelphia PA 19101"
    },
    "beds": 2,
    "baths": 1,
    "square_feet": 1200,
    "amenities": [
      "High-Speed Internet",
      "Air Conditioning",
      "Smart TV",
      "Coffee Maker"
    ],
    "rates": {
      "weekly": 550,
      "monthly": 2100
    },
    "images": ["j1.jpg", "j2.jpg", "j3.jpg"]
  },
  {
    "owner": "8",
    "name": "Beachfront Paradise",
    "type": "House",
    "description": "Relax in this luxurious beachfront house with private beach access.",
    "location": {
      "street": "789 Ocean Breeze Avenue",
      "city": "Miami",
      "state": "FL",
      "zipcode": "33101",
      "full_text": "789 Ocean Breeze Avenue Miami FL 33101"
    },
    "beds": 5,
    "baths": 4,
    "square_feet": 3200,
    "amenities": [
      "Beach Access",
      "Swimming Pool",
      "Balcony/Patio",
      "Smart TV",
      "Outdoor Grill/BBQ"
    ],
    "rates": {
      "nightly": 600,
      "weekly": 3000
    },
    "images": ["a1.jpg", "a2.jpg", "a3.jpg"]
  },
  {
    "owner": "9",
    "name": "Urban Oasis",
    "type": "Apartment",
    "description": "Enjoy a serene stay in the heart of the city with modern amenities.",
    "location": {
      "street": "234 Cityscape Lane",
      "city": "Chicago",
      "state": "IL",
      "zipcode": "60601",
      "full_text": "234 Cityscape Lane Chicago IL 60601"
    },
    "beds": 2,
    "baths": 1,
    "square_feet": 1300,
    "amenities": [
      "High-Speed Internet",
      "Air Conditioning",
      "Smart TV",
      "Balcony/Patio"
    ],
    "rates": {
      "weekly": 800,
      "monthly": 3100
    },
    "images": ["a1.jpg", "a2.jpg", "a3.jpg"]
  },
  {
    "owner": "10",
    "name": "Countryside Retreat",
    "type": "Cottage Or Cabin",
    "description": "Escape the city life and enjoy the tranquility of the countryside.",
    "location": {
      "street": "456 Meadow Lane",
      "city": "Austin",
      "state": "TX",
      "zipcode": "78701",
      "full_text": "456 Meadow Lane Austin TX 78701"
    },
    "beds": 2,
    "baths": 2,
    "square_feet": 1600,
    "amenities": [
      "Fireplace",
      "Outdoor Grill/BBQ",
      "Balcony/Patio",
      "Coffee Maker"
    ],
    "rates": {
      "weekly": 1500,
      "monthly": 5000
    },
    "images": ["a1.jpg", "a2.jpg", "a3.jpg"]
  },
  {
    "owner": "11",
    "name": "Luxury Penthouse Suite",
    "type": "Apartment",
    "description": "Experience top-floor luxury in this stunning penthouse suite.",
    "location": {
      "street": "678 Skyline Avenue",
      "city": "New York",
      "state": "NY",
      "zipcode": "10001",
      "full_text": "678 Skyline Avenue New York NY 10001"
    },
    "beds": 3,
    "baths": 2,
    "square_feet": 2500,
    "amenities": [
      "High-Speed Internet",
      "Air Conditioning",
      "Smart TV",
      "Balcony/Patio",
      "Gym/Fitness Center"
    ],
    "rates": {
      "weekly": 3000,
      "monthly": 12000
    },
    "images": ["a1.jpg", "a2.jpg", "a3.jpg"]
  },
  {
    "owner": "12",
    "name": "Coastal Getaway",
    "type": "House",
    "description": "Enjoy the coastal breeze and scenic views in this lovely beach house.",
    "location": {
      "street": "123 Seaside Lane",
      "city": "Miami",
      "state": "FL",
      "zipcode": "33101",
      "full_text": "123 Seaside Lane Miami FL 33101"
    },
    "beds": 4,
    "baths": 3,
    "square_feet": 2900,
    "amenities": [
      "Beach Access",
      "Swimming Pool",
      "Balcony/Patio",
      "Smart TV",
      "Outdoor Grill/BBQ"
    ],
    "rates": {
      "nightly": 550,
      "weekly": 2800
    },
    "images": ["a1.jpg", "a2.jpg", "a3.jpg"]
  },
  {
    "owner": "13",
    "name": "Central Park View",
    "type": "Apartment",
    "description": "A stunning apartment with a view of Central Park.",
    "location": {
      "street": "789 Park Avenue",
      "city": "New York",
      "state": "NY",
      "zipcode": "10001",
      "full_text": "789 Park Avenue New York NY 10001"
    },
    "beds": 2,
    "baths": 1,
    "square_feet": 1700,
    "amenities": [
      "High-Speed Internet",
      "Air Conditioning",
      "Smart TV",
      "Balcony/Patio",
      "24/7 Security"
    ],
    "rates": {
      "weekly": 2500,
      "monthly": 9000
    },
    "images": ["a1.jpg", "a2.jpg", "a3.jpg"]
  },
  {
    "owner": "14",
    "name": "Chic Downtown Condo",
    "type": "Condo",
    "description": "Enjoy city life in this chic downtown condo with modern amenities.",
    "location": {
      "street": "321 Fashion Street",
      "city": "Los Angeles",
      "state": "CA",
      "zipcode": "90001",
      "full_text": "321 Fashion Street Los Angeles CA 90001"
    },
    "beds": 1,
    "baths": 1,
    "square_feet": 950,
    "amenities": [
      "High-Speed Internet",
      "Air Conditioning",
      "Smart TV",
      "Gym/Fitness Center"
    ],
    "rates": {
      "weekly": 1200,
      "monthly": 4500
    },
    "images": ["a1.jpg", "a2.jpg", "a3.jpg"]
  },
  {
    "owner": "15",
    "name": "Sunny Beachside Bungalow",
    "type": "Cottage Or Cabin",
    "description": "Enjoy the sun and sand in this cozy beachside bungalow.",
    "location": {
      "street": "456 Sunny Shore",
      "city": "Miami",
      "state": "FL",
      "zipcode": "33101",
      "full_text": "456 Sunny Shore Miami FL 33101"
    },
    "beds": 2,
    "baths": 1,
    "square_feet": 1200,
    "amenities": [
      "Beach Access",
      "Balcony/Patio",
      "Outdoor Grill/BBQ",
      "Pet-Friendly"
    ],
    "rates": {
      "weekly": 2000,
      "monthly": 7500
    },
    "images": ["a1.jpg", "a2.jpg", "a3.jpg"]
  },
  {
    "owner": "16",
    "name": "Elegant Uptown Apartment",
    "type": "Apartment",
    "description": "Live in elegance in this beautifully furnished uptown apartment.",
    "location": {
      "street": "890 Uptown Boulevard",
      "city": "New York",
      "state": "NY",
      "zipcode": "10001",
      "full_text": "890 Uptown Boulevard New York NY 10001"
    },
    "beds": 3,
    "baths": 2,
    "square_feet": 2100,
    "amenities": [
      "High-Speed Internet",
      "Air Conditioning",
      "Smart TV",
      "Balcony/Patio",
      "24/7 Security",
      "Elevator Access"
    ],
    "rates": {
      "weekly": 3500,
      "monthly": 14000
    },
    "images": ["a1.jpg", "a2.jpg", "a3.jpg"]
  },
  {
    "owner": "17",
    "name": "Hollywood Hills Hideaway",
    "type": "House",
    "description": "Escape the hustle and bustle in this secluded hideaway in the Hollywood Hills.",
    "location": {
      "street": "123 Hollywood Drive",
      "city": "Los Angeles",
      "state": "CA",
      "zipcode": "90001",
      "full_text": "123 Hollywood Drive Los Angeles CA 90001"
    },
    "beds": 4,
    "baths": 3,
    "square_feet": 2500,
    "amenities": [
      "Swimming Pool",
      "Hot Tub",
      "Balcony/Patio",
      "Smart TV",
      "Outdoor Grill/BBQ"
    ],
    "rates": {
      "weekly": 4000,
      "monthly": 15000
    },
    "images": ["a1.jpg", "a2.jpg", "a3.jpg"]
  },
  {
    "owner": "18",
    "name": "Aspen Alpine Retreat",
    "type": "Chalet",
    "description": "Cozy up in this charming alpine retreat in the heart of Aspen.",
    "location": {
      "street": "456 Alpine Way",
      "city": "Aspen",
      "state": "CO",
      "zipcode": "81611",
      "full_text": "456 Alpine Way Aspen CO 81611"
    },
    "beds": 3,
    "baths": 2,
    "square_feet": 1900,
    "amenities": [
      "Ski Equipment Storage",
      "Fireplace",
      "Balcony/Patio",
      "Smart TV"
    ],
    "rates": {
      "nightly": 350,
      "weekly": 1300
    },
    "images": ["a1.jpg", "a2.jpg", "a3.jpg"]
  }
]
